{"type":"FeatureCollection","features":[{"type":"Feature","geometry":{"type":"Point","coordinates":[52.365424,4.800709]},"properties":{"title":"nieuw-west"}},{"type":"Feature","geometry":{"type":"Point","coordinates":[52.342222,4.877864]},"properties":{"title":"zuid"}},{"type":"Feature","geometry":{"type":"Point","coordinates":[52.37297223263607,4.902186244726182]},"properties":{"title":"centrum"}},{"type":"Feature","geometry":{"type":"Point","coordinates":[52.374617,4.863017]},"properties":{"title":"west"}},{"type":"Feature","geometry":{"type":"Point","coordinates":[52.407599,4.796442]},"properties":{"title":"westpoort"}},{"type":"Feature","geometry":{"type":"Point","coordinates":[52.35299178449663,4.9381278455257425]},"properties":{"title":"oost"}},{"type":"Feature","geometry":{"type":"Point","coordinates":[52.401653,4.917681]},"properties":{"title":"noord"}},{"type":"Feature","geometry":{"type":"Point","coordinates":[52.3057300168753,4.973787143826486]},"properties":{"title":"zuid-oost"}}]}
